City_ID,City,Lat,Lng,Max Temp,Humidity,Cloudiness,Wind Speed,Country,Date
0,hawaiian paradise park,19.5933,-154.9731,23.73,60,100,6.69,US,1707013020
1,kapa'a,22.0752,-159.319,24.99,62,100,11.32,US,1707013000
2,isafjordur,66.0755,-23.124,-4.44,91,99,7.6,IS,1707013020
3,puerto natales,-51.7236,-72.4875,7.92,84,100,1.35,CL,1707013020
4,pandan,14.0453,124.1694,27.67,74,32,2.83,PH,1707013020
5,papatowai,-46.5619,169.4708,20.16,53,100,6.8,NZ,1707013020
6,invercargill,-46.4,168.35,21.12,61,100,6.26,NZ,1707013020
7,udachny,66.4167,112.4,-31.45,82,73,1.35,RU,1707013020
8,st. john's,47.5649,-52.7093,-0.68,91,100,8.75,CA,1707013021
9,port said,31.2565,32.2841,13.35,64,21,6.81,EG,1707013021
10,bethel,41.3712,-73.414,2.09,61,100,1.54,US,1707013021
11,amungan,15.3652,119.9582,29.55,57,1,0.31,PH,1707012976
12,sidney,-33.8679,151.2073,36.29,60,0,6.17,AU,1707013001
13,hermanus,-34.4187,19.2345,23.22,87,37,2.79,ZA,1707013021
14,constantia,44.1833,28.65,4.38,79,100,6.53,RO,1707013021
15,aban,56.67,96.06,-23.93,100,100,1.52,RU,1707013021
16,wynyard,-41.0,145.7167,21.42,70,100,4.73,AU,1707013022
17,taoudenni,22.6783,-3.9836,16.24,15,30,7.81,ML,1707013022
18,balqash,46.8481,74.995,-11.67,85,0,4.0,KZ,1707013022
19,waitangi,-43.9535,-176.5597,17.68,67,8,7.54,NZ,1707013022
20,shanwei,22.782,115.3475,19.11,85,95,6.5,CN,1707013022
21,tiksi,71.6872,128.8694,-33.51,100,100,1.83,RU,1707013022
22,barra do bugres,-15.0725,-57.1811,22.98,88,100,1.76,BR,1707013023
23,ushuaia,-54.8,-68.3,8.81,71,0,1.54,AR,1707013023
24,anadyr,64.75,177.4833,-18.72,70,100,5.0,RU,1707013023
25,edinburgh of the seven seas,-37.0676,-12.3116,16.22,75,46,12.98,SH,1707013024
26,kabansk,52.0486,106.6528,-16.39,87,99,0.85,RU,1707013024
27,santa ana,33.7456,-117.8678,14.8,65,100,3.09,US,1707012867
28,tazacorte,28.629,-17.9293,19.53,29,0,4.47,ES,1707013025
29,adamstown,-25.066,-130.1015,25.59,71,100,1.89,PN,1707013025
30,djambala,-2.5447,14.7533,21.97,83,100,1.1,CG,1707013025
31,bredasdorp,-34.5322,20.0403,20.87,95,99,2.63,ZA,1707013026
32,klyuchi,52.2667,79.1667,-8.55,84,92,5.05,RU,1707013026
33,gadzhiyevo,69.2551,33.3362,-6.29,85,100,9.63,RU,1707013026
34,kapuskasing,49.4169,-82.4331,-2.95,93,0,2.06,CA,1707013026
35,atafu village,-8.5421,-172.5159,29.18,75,100,8.98,TK,1707013026
36,mar del plata,-38.0023,-57.5575,19.41,69,64,7.15,AR,1707012821
37,cabo san lucas,22.8909,-109.9124,21.53,66,0,1.34,MX,1707012788
38,kone,-21.0595,164.8658,30.71,70,100,4.31,NC,1707013027
39,port alfred,-33.5906,26.891,20.66,97,100,4.53,ZA,1707013027
40,port-aux-francais,-49.35,70.2167,6.61,87,93,8.43,TF,1707013027
41,jutai,-5.1833,-68.9,23.88,98,100,0.72,BR,1707013027
42,arinos,-15.9169,-46.1056,21.48,89,99,0.47,BR,1707013027
43,grytviken,-54.2811,-36.5092,10.16,75,94,3.88,GS,1707013028
44,utrik,11.2278,169.8474,26.56,77,96,8.39,MH,1707013028
45,kouango,4.9934,19.9619,24.23,29,100,1.23,CF,1707013028
46,gobabis,-22.45,18.9667,20.37,64,100,3.48,NA,1707013028
47,port elizabeth,-33.918,25.5701,22.83,95,100,0.89,ZA,1707013029
48,margaret river,-33.95,115.0667,17.79,52,75,6.58,AU,1707012885
49,sao joao da barra,-21.6403,-41.0511,25.1,89,100,3.62,BR,1707012771
50,ribeira grande,38.5167,-28.7,17.1,85,11,7.6,PT,1707013030
51,north bend,43.4065,-124.2243,9.36,81,0,2.57,US,1707013030
52,kolonia town,6.964,158.206,29.06,89,100,2.06,FM,1707013031
53,praia da vitoria,38.7333,-27.0667,15.98,94,20,4.74,PT,1707013031
54,medina sidonia,36.457,-5.9272,9.49,90,11,4.21,ES,1707013032
55,dublin,37.7021,-121.9358,11.36,80,100,4.12,US,1707013032
56,saint david's,12.0333,-61.6667,26.69,83,20,5.14,GD,1707013032
57,nagqu,31.5,92.0,-6.65,21,72,8.15,CN,1707013032
58,hamilton,39.1834,-84.5333,5.25,78,0,4.12,US,1707012833
59,yakeshi,49.2833,120.7333,-27.17,98,98,0.14,CN,1707013032
60,leava,-14.3,-178.1667,28.84,74,83,3.13,WF,1707013032
61,vorgashor,67.5833,63.95,-20.85,95,20,2.52,RU,1707013033
62,cucuta,7.8833,-72.5053,27.6,100,75,2.06,CO,1707012501
63,ambalangoda,6.2355,80.0538,25.18,89,99,1.86,LK,1707013033
64,nishinoomote,30.7333,131.0,15.31,100,75,3.09,JP,1707013033
65,qaqortoq,60.7167,-46.0333,-21.31,68,1,3.95,GL,1707013033
66,pahrump,36.2083,-115.9839,9.03,64,61,0.45,US,1707013033
67,vadso,70.0744,29.7487,-1.91,80,100,4.63,NO,1707013033
68,fort mcmurray,56.7268,-111.381,-8.23,86,0,2.06,CA,1707013014
69,dishna,26.1247,32.476,9.53,48,0,2.44,EG,1707013034
70,jayapura,-2.5333,140.7,33.66,63,59,3.21,ID,1707013034
71,eenhana,-17.4667,16.3333,19.45,92,100,1.59,NA,1707013034
72,torbat-e heydariyeh,35.274,59.2195,-1.72,67,1,0.74,IR,1707013035
73,rio gallegos,-51.6226,-69.2181,12.03,62,0,11.32,AR,1707013035
74,haiku-pauwela,20.9219,-156.3051,22.01,69,100,8.75,US,1707013035
75,port mathurin,-19.6833,63.4167,26.47,62,14,5.65,MU,1707012802
76,petropavlovsk-kamchatsky,53.0452,158.6483,-11.67,48,40,2.0,RU,1707013036
77,lompoc,34.6391,-120.4579,12.1,85,100,5.14,US,1707012925
78,nemuro,43.3236,145.575,-3.42,61,15,5.2,JP,1707012830
79,berezovyy,51.6667,135.7,-15.94,67,4,0.82,RU,1707013037
80,boa vista,2.8197,-60.6733,31.99,43,0,5.66,BR,1707012785
81,cidreira,-30.1811,-50.2056,23.88,88,100,7.49,BR,1707013037
82,pelabuhanratu,-6.9875,106.5514,26.07,87,100,2.26,ID,1707012937
83,nova vicosa,-17.8919,-39.3719,25.02,86,79,1.82,BR,1707013038
84,saint-joseph,-21.3667,55.6167,20.21,72,42,3.93,RE,1707013038
85,prince rupert,54.3161,-130.3201,3.83,80,0,6.17,CA,1707013038
86,iqaluit,63.7506,-68.5145,-26.84,68,0,3.09,CA,1707013038
87,rudnichnyy,59.617,52.4703,-16.22,99,90,1.52,RU,1707013038
88,necochea,-38.5473,-58.7368,17.2,56,100,7.48,AR,1707013039
89,enewetak,11.3474,162.3373,26.49,83,68,10.01,MH,1707013039
90,cannonvale,-20.2833,148.7,29.66,58,81,3.64,AU,1707013039
91,mariental,-24.6333,17.9667,25.15,52,100,4.16,NA,1707013040
92,dudinka,69.4058,86.1778,-14.07,94,100,5.36,RU,1707013040
93,yellowknife,62.456,-114.3525,-26.71,76,0,2.06,CA,1707013040
94,tchollire,8.4022,14.1698,20.15,21,23,0.68,CM,1707013040
95,bilibino,68.0546,166.4372,-28.02,83,18,2.68,RU,1707012911
96,cuttack,20.465,85.8793,21.1,80,0,0.99,IN,1707013041
97,vila franca do campo,37.7167,-25.4333,18.27,99,85,3.74,PT,1707012851
98,nikolayevsk-on-amure,53.1406,140.73,-17.21,81,33,2.55,RU,1707013041
99,polyarnyy,69.1989,33.4478,-6.02,85,100,9.82,RU,1707013041
100,keflavik,64.0049,-22.5624,-1.76,69,40,10.8,IS,1707013041
101,ust-nera,64.5667,143.2,-22.4,96,100,2.24,RU,1707013042
102,kenora,49.8167,-94.4337,-1.46,100,20,1.03,CA,1707013042
103,broome,42.2506,-75.833,-0.77,85,100,2.06,US,1707013042
104,puerto san jose,13.9256,-90.8244,25.62,70,2,5.29,GT,1707013042
105,akureyri,65.6835,-18.0878,-5.04,93,100,1.54,IS,1707013042
106,badger,64.8,-147.5333,-36.67,68,0,1.54,US,1707012933
107,groningen,53.25,6.75,6.76,89,55,4.63,NL,1707012919
108,tamandare,-8.7597,-35.1047,25.97,83,49,2.55,BR,1707013043
109,villacidro,39.4578,8.7406,9.14,93,0,2.67,IT,1707013043
110,whitehorse,60.7161,-135.0538,-26.22,59,20,3.09,CA,1707013044
111,saipan,15.1355,145.701,29.39,61,75,10.29,MP,1707013044
112,howrah,22.5892,88.3103,18.0,94,0,1.54,IN,1707013044
113,inhambane,-23.865,35.3833,23.46,86,84,2.54,MZ,1707013044
114,carnarvon,-24.8667,113.6333,25.62,59,11,10.15,AU,1707013044
115,nouadhibou,20.931,-17.0347,20.99,35,54,6.69,MR,1707013044
116,puerto ayora,-0.7393,-90.3518,25.31,98,18,1.79,EC,1707013045
117,yilan,24.757,121.753,22.2,91,100,1.07,TW,1707013045
118,amalapuram,16.5833,82.0167,21.61,84,4,1.06,IN,1707013045
119,sinabang,2.4803,96.3801,27.13,76,87,1.21,ID,1707013045
120,mount gambier,-37.8333,140.7667,30.72,24,2,0.91,AU,1707013046
121,bamboo flat,11.7,92.7167,24.05,94,11,0.51,IN,1707013046
122,andreyevo,55.9465,41.1505,-7.28,96,100,3.9,RU,1707013046
123,najran,17.4924,44.1277,12.36,44,3,0.91,SA,1707013046
124,palmer,42.1584,-72.3287,-0.25,58,0,6.17,US,1707013046
125,talnakh,69.4865,88.3972,-14.33,96,100,3.88,RU,1707013047
126,tokar,18.4254,37.729,19.92,66,15,3.49,SD,1707013047
127,lebu,-37.6167,-73.65,14.44,82,0,8.97,CL,1707013047
128,nuuk,64.1835,-51.7216,-12.66,66,30,6.69,GL,1707013047
129,tripoli,32.8752,13.1875,13.5,67,9,1.85,LY,1707013047
130,longyearbyen,78.2186,15.6401,-11.09,79,0,3.09,SJ,1707013047
131,arraial do cabo,-22.9661,-42.0278,25.05,92,100,6.06,BR,1707013014
132,at taraf,25.3628,49.725,10.3,57,11,3.26,SA,1707013048
133,nar'yan-mar,67.6713,53.087,-13.27,84,17,7.15,RU,1707013048
134,kodiak,57.79,-152.4072,1.73,87,100,3.09,US,1707013048
135,usinsk,65.9939,57.5281,-25.52,97,9,1.79,RU,1707013048
136,kirakira,-10.4544,161.9205,30.46,70,82,5.94,SB,1707013048
137,la sarre,48.8002,-79.1996,-9.23,98,54,0.85,CA,1707013048
138,farasan,16.7022,42.1183,25.09,69,90,4.73,SA,1707013049
139,zaozersk,69.4005,32.4476,-5.96,92,100,5.6,RU,1707013049
140,pimentel,-6.8367,-79.9342,25.16,73,40,6.17,PE,1707013049
141,colonia,50.9333,6.95,10.59,91,100,4.12,DE,1707012804
142,khvoynaya,58.9,34.5333,-0.27,97,100,4.39,RU,1707013049
143,kingston,17.997,-76.7936,26.53,69,20,1.54,JM,1707012890
144,menongue,-14.6585,17.691,17.08,92,99,0.89,AO,1707013050
145,saint-philippe,-21.3585,55.7679,20.77,70,61,3.47,RE,1707013050
146,queenstown,-31.8976,26.8753,18.34,80,63,0.56,ZA,1707013050
147,blackmans bay,-43.0167,147.3167,16.07,85,100,0.45,AU,1707013050
148,tolanaro,-25.0319,46.9987,22.67,89,21,5.3,MG,1707013050
149,severodvinsk,64.5635,39.8302,-6.94,94,98,5.9,RU,1707013051
150,winnemucca,40.973,-117.7357,1.03,64,20,0.0,US,1707013051
151,thompson,55.7435,-97.8558,0.09,100,100,2.06,CA,1707013051
152,evanston,42.0411,-87.6901,1.73,83,20,4.63,US,1707013051
153,tabira,-7.5908,-37.5394,24.19,62,39,4.81,BR,1707012872
154,pleiku,13.9833,108.0,26.46,45,5,0.61,VN,1707013051
155,apartado,7.883,-76.6259,24.57,95,92,1.75,CO,1707013052
156,west island,-12.1568,96.8225,24.99,94,75,3.09,CC,1707013052
157,yonan-up,37.9089,126.1611,3.51,61,57,2.35,KP,1707013052
158,san antonio de pale,-1.4014,5.6325,27.81,74,100,3.0,GQ,1707013052
159,hilo,19.7297,-155.09,23.86,59,100,6.69,US,1707012772
160,ancud,-41.8697,-73.8203,11.65,75,15,2.31,CL,1707013010
161,acajutla,13.5928,-89.8275,25.53,80,9,4.27,SV,1707013052
162,veraval,20.9,70.3667,22.28,56,3,4.52,IN,1707013053
163,bikenibeu village,1.3673,173.1241,30.98,74,75,4.12,KI,1707013053
164,acarau,-2.8856,-40.12,26.9,84,100,5.84,BR,1707013053
165,coquimbo,-29.9533,-71.3436,18.85,88,0,1.54,CL,1707013053
166,lobujya,27.95,86.8167,-13.71,37,30,2.08,NP,1707013053
167,avarua,-21.2078,-159.775,30.03,74,40,4.12,CK,1707013054
168,katpur,21.05,71.7833,22.64,52,5,3.99,IN,1707013054
169,remire-montjoly,4.9167,-52.2667,26.02,94,0,0.51,GF,1707013054
170,olonkinbyen,70.9221,-8.7187,-5.55,61,100,10.94,SJ,1707013054
171,purmerend,52.505,4.9597,10.0,79,100,3.58,NL,1707013054
172,val-d'or,48.1002,-77.7828,-4.95,93,100,1.54,CA,1707013054
173,college,64.8569,-147.8028,-36.62,64,20,1.54,US,1707012898
174,newcastle west,52.4492,-9.0611,10.81,95,100,5.07,IE,1707013055
175,masterton,-40.9597,175.6575,22.28,32,5,4.01,NZ,1707013055
176,souillac,-20.5167,57.5167,24.21,69,20,1.54,MU,1707013055
177,vilyuysk,63.7553,121.6247,-23.33,93,100,1.79,RU,1707013055
178,makokou,0.5738,12.8642,22.17,87,100,1.05,GA,1707013055
179,luderitz,-26.6481,15.1594,18.0,99,41,0.91,NA,1707013055
180,malvan,16.0667,73.4667,22.71,59,87,2.59,IN,1707013055
181,vilyuchinsk,52.9306,158.4028,-10.85,71,63,3.93,RU,1707013056
182,deqen,29.9618,90.7188,-4.98,30,0,2.11,CN,1707013056
183,holualoa,19.6228,-155.9522,23.77,77,100,4.63,US,1707013056
184,vodice,43.7608,15.7828,6.98,64,6,1.2,HR,1707013056
185,pasuquin,18.3328,120.6177,26.97,83,20,2.06,PH,1707013056
186,tual,-5.6667,132.75,28.78,76,26,4.69,ID,1707013057
187,hasaki,35.7333,140.8333,7.38,89,100,4.75,JP,1707013057
188,san patricio,28.017,-97.5169,18.24,52,1,2.06,US,1707012884
189,laibin,23.7,109.2667,11.03,91,100,4.39,CN,1707013057
190,wuyishan,28.0047,117.8114,8.87,99,100,2.07,CN,1707013058
191,northam,51.0333,-4.2167,10.77,100,100,8.0,GB,1707013058
192,maxixe,-23.8597,35.3472,22.94,88,85,2.35,MZ,1707013058
193,dromana,-38.3418,144.9656,35.94,56,0,2.79,AU,1707013059
194,visby,57.6409,18.296,4.12,75,54,9.77,SE,1707013059
195,afaahiti,-17.75,-149.2833,28.93,77,98,4.25,PF,1707013059
196,selfoss,63.9331,-20.9971,-4.42,81,100,3.43,IS,1707013059
197,lagunas,-5.2269,-75.6753,23.96,90,100,0.57,PE,1707013060
198,iron river,46.0927,-88.6423,-2.58,78,1,0.89,US,1707013060
199,kourou,5.1552,-52.6478,26.03,93,47,2.67,GF,1707013060
200,quartu sant'elena,39.2419,9.1839,10.56,79,0,4.12,IT,1707013011
201,goz beida,13.95,20.55,17.85,22,0,3.06,TD,1707013060
202,anatuya,-28.4606,-62.8347,33.95,29,94,4.56,AR,1707013060
203,susuman,62.7833,148.1667,-25.05,96,93,1.38,RU,1707013060
204,dunedin,-45.8742,170.5036,23.93,35,92,1.43,NZ,1707013061
205,nilsia,63.2,28.0833,-5.49,93,89,3.55,FI,1707013061
206,namsos,64.4662,11.4957,2.95,56,40,7.72,NO,1707013061
207,punta arenas,-53.15,-70.9167,11.06,66,100,3.6,CL,1707013061
208,belyy yar,53.6039,91.3903,-13.06,92,75,1.0,RU,1707013061
209,richfield,44.8833,-93.283,0.34,85,0,3.09,US,1707013061
210,baruun-urt,46.6806,113.2792,-22.18,93,53,3.36,MN,1707013061
211,suva,-18.1416,178.4415,31.71,62,75,3.6,FJ,1707013062
212,greenville,35.6127,-77.3663,3.01,89,0,0.0,US,1707013028
213,mek'ele,13.4967,39.4753,15.35,79,89,3.32,ET,1707013062
214,puerto baquerizo moreno,-0.9,-89.6,25.56,88,18,4.6,EC,1707013062
215,mata-utu,-13.2816,-176.1745,28.7,77,100,8.9,WF,1707013062
216,uturoa,-16.7333,-151.4333,27.97,72,100,4.75,PF,1707013062
217,tazovsky,67.4667,78.7,-14.44,94,100,2.2,RU,1707013062
218,east london,-33.0153,27.9116,24.4,87,91,3.53,ZA,1707013063
219,dahlonega,34.5326,-83.9849,9.06,70,99,3.27,US,1707013063
220,yima,34.7381,111.8839,-4.69,88,100,3.89,CN,1707013063
221,bandon,51.7469,-8.7425,11.77,96,100,6.9,IE,1707013063
222,gunjur,13.2019,-16.7339,23.04,64,1,1.03,GM,1707013063
223,kotido,2.9806,34.1331,23.0,54,65,3.71,UG,1707013063
224,mokhotlong,-29.2894,29.0675,11.15,92,96,0.57,LS,1707013063
225,timbiqui,2.7717,-77.6654,24.96,91,99,0.73,CO,1707013063
226,goya,-29.14,-59.2626,29.2,37,0,3.26,AR,1707013064
227,angra do heroismo,38.65,-27.2167,16.18,91,20,0.89,PT,1707013064
228,newman,37.3138,-121.0208,11.81,75,100,1.59,US,1707013064
229,bakaly,55.1789,53.8028,-8.69,95,99,4.13,RU,1707013064
230,georgetown,5.4112,100.3354,29.97,74,20,2.57,MY,1707013064
231,tura,25.5198,90.2201,15.18,33,0,0.88,IN,1707013064
232,san-pedro,4.7485,-6.6363,27.32,81,100,2.73,CI,1707013064
233,fale old settlement,-9.3852,-171.2468,28.12,80,100,9.09,TK,1707013064
234,tosontsengel,48.7567,98.2839,-17.94,99,100,1.21,MN,1707013065
235,gisborne,-38.6533,178.0042,20.02,48,0,3.83,NZ,1707013065
236,stanley,54.868,-1.6985,6.96,75,40,6.17,GB,1707012915
237,kyshtovka,56.555,76.6271,-14.81,97,100,2.68,RU,1707013065
238,prado,-17.3411,-39.2208,24.71,90,73,2.1,BR,1707013065
239,sinop,41.7711,34.8709,1.18,78,100,2.59,TR,1707013066
240,hobyo,5.3505,48.5268,25.29,86,70,7.42,SO,1707013066
241,maragogi,-9.0122,-35.2225,25.65,83,63,2.49,BR,1707013066
242,lihue,21.9789,-159.3672,24.58,62,100,11.32,US,1707013066
243,albany,42.6001,-73.9662,-1.47,63,20,0.45,US,1707012992
244,motygino,58.1831,94.7592,-23.69,100,100,1.38,RU,1707013066
245,wailua homesteads,22.0669,-159.378,24.24,62,100,11.32,US,1707013066
246,walvis bay,-22.9575,14.5053,19.53,88,81,2.06,NA,1707012934
247,touros,-5.1989,-35.4608,27.17,77,31,6.27,BR,1707012834
248,saldanha,-33.0117,17.9442,18.39,98,96,4.5,ZA,1707013066
249,mossel bay,-34.1831,22.146,18.96,94,100,3.44,ZA,1707013067
250,piti village,13.4626,144.6933,28.72,75,20,8.23,GU,1707013067
251,chonchi,-42.6128,-73.8092,12.4,78,46,0.48,CL,1707013067
252,nogliki,51.8333,143.1667,-15.92,79,5,4.92,RU,1707012961
253,yemetsk,63.4721,41.7941,-13.8,95,97,3.79,RU,1707013067
254,calama,-22.4667,-68.9333,18.1,41,45,1.23,CL,1707012848
255,la ronge,55.1001,-105.2842,-0.86,86,100,6.69,CA,1707013067
256,kangasniemi,61.9936,26.6479,-3.99,88,77,4.52,FI,1707013068
257,ilulissat,69.2167,-51.1,-20.99,49,94,6.69,GL,1707013068
258,viedma,-40.8135,-62.9967,14.13,52,82,3.61,AR,1707013068
259,mejit,10.2753,170.8646,26.75,75,100,8.62,MH,1707013068
260,newquay,50.4132,-5.0819,10.42,100,100,7.2,GB,1707013068
261,alofi,-19.0595,-169.9187,30.94,70,90,4.63,NU,1707012922
262,sisimiut,66.9395,-53.6735,-20.95,86,76,4.14,GL,1707013068
263,freetown,8.484,-13.2299,26.84,83,99,3.09,SL,1707013069
264,richards bay,-28.783,32.0377,22.82,81,88,4.38,ZA,1707013069
265,margate,51.3813,1.3862,11.17,89,100,3.58,GB,1707013069
266,shevchenko,48.5,35.0,4.9,90,100,6.71,UA,1707013069
267,choibalsan,48.0667,114.5,-23.21,90,16,1.64,MN,1707013069
268,phan rang-thap cham,11.5667,108.9833,28.22,56,12,1.95,VN,1707013069
269,marovoay,-16.1,46.6333,25.03,83,100,2.02,MG,1707013069
270,hailey,43.5196,-114.3153,0.44,67,100,1.79,US,1707012867
271,malabar,-33.9667,151.25,36.51,60,0,6.17,AU,1707013070
272,hadibu,12.65,54.0333,24.0,78,72,4.21,YE,1707013070
273,jurm,36.8648,70.8342,-4.1,93,99,0.51,AF,1707013070
274,afif,23.9065,42.9172,9.91,36,27,4.43,SA,1707013070
275,smara,26.7384,-11.6719,15.0,14,95,4.7,EH,1707013070
276,saudarkrokur,65.7461,-19.6394,-10.73,92,99,3.97,IS,1707012859
277,trinidad,-14.8333,-64.9,26.02,75,18,0.17,BO,1707013070
278,lincheng,19.9078,109.6858,23.11,82,25,0.25,CN,1707012995
279,tequesta,26.9681,-80.1286,22.25,80,100,2.68,US,1707013070
280,teshi old town,5.5836,-0.1072,27.31,61,42,1.03,GH,1707013071
281,rio grande,-32.035,-52.0986,23.98,86,2,6.0,BR,1707013043
282,paciran,-6.8767,112.3761,28.14,77,81,3.74,ID,1707013071
283,ulsteinvik,62.3432,5.8487,5.42,72,100,6.26,NO,1707012922
284,canavieiras,-15.675,-38.9472,24.45,89,89,1.19,BR,1707013071
285,forio,40.7342,13.8646,12.51,90,10,5.63,IT,1707013071
286,zhabinka,52.1984,24.0115,4.71,78,89,7.87,BY,1707013071
287,sastobe,42.55,70.0,-0.06,98,100,0.66,KZ,1707013071
288,codrington,-38.2667,141.9667,27.07,36,1,5.36,AU,1707013071
289,tabou,4.423,-7.3528,26.96,83,98,2.95,CI,1707013071
290,capinopolis,-18.6819,-49.5697,21.13,89,100,1.95,BR,1707013071
291,ixtapa,20.7,-105.2,23.57,60,20,1.54,MX,1707013072
292,aasiaat,68.7098,-52.8699,-31.62,93,43,2.05,GL,1707013072
293,nabire,-3.3667,135.4833,30.07,67,73,1.69,ID,1707013072
294,hithadhoo,-0.6,73.0833,27.43,77,98,2.33,MV,1707013072
295,verkhnevilyuysk,63.4453,120.3167,-22.91,91,100,2.4,RU,1707013072
296,nyurba,63.2842,118.3319,-26.09,92,94,3.07,RU,1707013072
297,geraldton,-28.7667,114.6,25.23,50,0,10.8,AU,1707013072
298,ipojuca,-8.3989,-35.0639,28.95,84,33,2.27,BR,1707012898
299,mount vernon,40.9126,-73.8371,3.83,59,75,4.63,US,1707012994
300,alice springs,-23.7,133.8833,33.75,22,100,4.63,AU,1707012948
301,gounou gaya,9.6294,15.5132,21.21,20,8,2.89,TD,1707013073
302,an nuhud,12.7,28.4333,15.32,21,18,6.49,SD,1707013073
303,chernyshevskiy,63.0128,112.4714,-35.23,100,71,1.44,RU,1707013073
304,fort bragg,35.139,-79.006,5.64,83,0,0.0,US,1707013073
305,las palmas de gran canaria,28.0997,-15.4134,21.54,23,0,3.09,ES,1707013073
306,muynoq,43.7683,59.0214,1.19,99,100,2.57,UZ,1707013073
307,gangtok,27.3333,88.6167,6.94,62,56,0.18,IN,1707013073
308,choyr,46.3611,108.3611,-19.31,84,100,1.29,MN,1707013074
309,bantogon,6.5333,124.0333,28.84,71,26,2.49,PH,1707013074
310,machico,32.7,-16.7667,18.35,83,20,3.09,PT,1707013074
311,taro,-8.3862,115.28,22.0,90,100,1.42,ID,1707013074
312,potchefstroom,-26.7167,27.1,16.38,79,31,2.31,ZA,1707013074
313,bengkulu,-3.8004,102.2655,25.53,82,100,1.66,ID,1707013074
314,ziway,7.9333,38.7167,18.55,77,98,5.92,ET,1707013074
315,tofol,5.3248,163.0078,27.79,79,100,7.41,FM,1707013074
316,lakshmipur,22.95,90.8333,18.95,62,0,1.14,BD,1707013075
317,lively,46.4334,-81.1498,-2.49,96,8,1.65,CA,1707013075
318,marsh harbour,26.5412,-77.0636,21.19,65,23,2.42,BS,1707013075
319,sault ste. marie,46.5168,-84.3333,-0.84,100,100,0.0,CA,1707012971
320,prince george,53.9166,-122.753,-3.54,62,0,1.03,CA,1707013075
321,domoni,-12.2569,44.5319,26.72,84,100,1.42,KM,1707013075
322,as sulayyil,20.4607,45.5779,10.14,31,0,4.47,SA,1707013075
323,san carlos,9.6612,-68.5827,28.56,57,100,1.47,VE,1707013075
324,midelt,32.6852,-4.7451,4.96,36,83,0.87,MA,1707013076
325,hun,29.1268,15.9477,9.59,73,19,1.68,LY,1707013076
326,weno,7.4515,151.8468,28.97,84,100,4.63,FM,1707013045
327,holbrook,40.8123,-73.0784,2.66,56,75,5.14,US,1707013076
328,morehead city,34.7229,-76.726,6.66,82,0,1.54,US,1707012948
329,yaren,-0.5472,166.916,28.8,77,100,7.01,NR,1707013076
330,vila velha,-20.3297,-40.2925,24.97,96,75,1.54,BR,1707013076
331,biltine,14.5333,20.9167,18.41,21,3,5.98,TD,1707013076
332,lijiang,26.8688,100.2207,2.77,63,19,1.75,CN,1707013076
333,chita,52.0333,113.55,-28.91,68,20,0.0,RU,1707013076
334,bardai,11.65,7.2333,16.58,19,0,5.99,NG,1707013077
335,callao,-12.0667,-77.15,27.07,78,75,4.63,PE,1707013077
336,papao,-17.75,-149.55,29.82,76,98,4.55,PF,1707012922
337,dwarka,22.2394,68.9678,22.66,79,2,2.19,IN,1707013077
338,khilok,51.3674,110.4676,-17.38,89,65,1.1,RU,1707013037
339,nova sintra,14.8667,-24.7167,21.54,69,100,3.88,CV,1707013077
340,kayangel,8.0823,134.7173,27.43,78,89,9.48,PW,1707013077
341,talata mafara,12.5732,6.0597,19.17,18,8,6.93,NG,1707013077
342,libertad,8.9442,125.5019,28.48,70,17,1.76,PH,1707013078
343,pangody,65.85,74.4859,-16.76,96,100,2.26,RU,1707013078
344,isangel,-19.55,169.2667,31.06,79,100,4.12,VU,1707013078
345,mirialguda,16.8667,79.5833,21.9,81,2,1.41,IN,1707013078
346,kudahuvadhoo,2.6708,72.8944,27.3,79,90,5.29,MV,1707013078
347,ratnagiri,16.9833,73.3,22.54,49,9,1.9,IN,1707012977
348,ghadamis,30.1337,9.5007,12.35,62,100,5.02,LY,1707013078
349,kill devil hills,36.0307,-75.676,6.1,77,0,2.06,US,1707013078
350,kaa-khem,51.6833,94.7333,-30.33,98,86,1.02,RU,1707013023
351,mundri,-6.9558,111.71,26.66,84,100,3.18,ID,1707013079
352,newberry,34.2746,-81.6187,7.77,86,63,2.79,US,1707013079
353,kerikeri,-35.2268,173.9474,23.69,40,0,3.16,NZ,1707013079
354,mokhsogollokh,61.4681,128.9203,-33.21,99,85,1.13,RU,1707013079
355,jamestown,42.097,-79.2353,-2.21,97,0,0.45,US,1707012913
356,romblon,12.5751,122.2708,26.66,76,19,8.11,PH,1707013079
357,galliano,29.4422,-90.2992,18.0,95,100,3.91,US,1707013079
358,lethem,3.3803,-59.7968,29.97,36,6,4.22,GY,1707013079
359,arawa,-6.2132,155.5367,32.13,64,35,1.31,PG,1707012796
360,flying fish cove,-10.4217,105.6791,28.82,74,100,3.09,CX,1707013080
361,knottsville,37.7717,-86.9042,8.88,66,89,5.55,US,1707013080
362,severo-yeniseyskiy,60.3725,93.0408,-20.72,100,100,1.85,RU,1707013080
363,road town,18.4167,-64.6167,26.02,69,40,0.97,VG,1707012871
364,arkhangel'sk,64.5401,40.5433,-6.94,86,100,5.0,RU,1707013080
365,sretensk,52.2453,117.7093,-25.07,93,57,0.44,RU,1707013080
366,tindouf,27.6711,-8.1474,13.25,19,0,5.14,DZ,1707013080
367,tomatlan,19.9333,-105.25,18.78,77,0,1.37,MX,1707013080
368,ambodifotatra,-16.9833,49.85,26.62,80,62,5.2,MG,1707012967
369,babayevo,59.3936,35.9371,-3.4,98,100,0.7,RU,1707013081
370,omaruru,-21.4333,15.9333,21.31,77,100,1.63,NA,1707013081
371,monteros,-27.1674,-65.4983,28.55,46,100,2.27,AR,1707013081
372,east dereham,52.6833,0.9333,9.77,86,94,5.52,GB,1707013081
373,kiunga,-6.1219,141.2906,33.41,53,92,0.65,PG,1707013081
374,manta,-0.95,-80.7333,26.88,83,40,5.81,EC,1707012900
375,taguatinga,-12.3857,-46.5711,22.74,77,95,1.89,BR,1707013081
376,kavieng,-2.5744,150.7967,29.21,74,83,2.92,PG,1707013081
377,talcahuano,-36.7167,-73.1167,16.82,72,0,4.63,CL,1707013082
378,huilong,31.8111,121.655,6.04,94,100,4.33,CN,1707013082
379,grande prairie,55.1667,-118.8027,-9.9,73,0,2.06,CA,1707012936
380,carbonear,47.7332,-53.2148,-0.42,87,93,8.75,CA,1707013082
381,forster,-32.1667,152.5167,31.27,67,85,6.54,AU,1707012863
382,orange walk,17.8333,-88.8333,21.64,94,0,1.27,BZ,1707013082
383,aktau,43.65,51.2,1.32,80,99,1.27,KZ,1707013083
384,taungoo,18.9333,96.4333,22.81,40,0,0.61,MM,1707013083
385,haverfordwest,51.8017,-4.9691,10.59,100,100,3.58,GB,1707013083
386,kingscliff,-28.2667,153.5667,27.89,78,100,3.6,AU,1707013083
387,tanaina,61.6269,-149.4281,-13.1,74,100,1.54,US,1707013084
388,usogorsk,63.4106,48.6872,-11.22,93,98,3.97,RU,1707013084
389,sodra sandby,56.5667,16.6167,5.92,76,100,10.54,SE,1707013084
390,burutu,5.3509,5.5076,26.08,89,33,1.21,NG,1707013084
391,wasilkow,53.1991,23.2078,5.48,76,100,5.36,PL,1707013084
392,shingu,33.7333,135.9833,8.7,90,100,0.67,JP,1707013084
393,christchurch,-43.5333,172.6333,28.51,38,6,5.66,NZ,1707013084
394,rongelap,11.1635,166.8941,26.63,78,100,8.7,MH,1707013085
395,lloydminster,53.2835,-110.0016,-0.88,86,100,6.17,CA,1707012837
396,tenenkou,14.4572,-4.9169,20.8,13,5,4.76,ML,1707013085
397,bogandinskiy,56.8937,65.8938,-10.04,95,100,3.27,RU,1707013085
398,dolbeau-mistassini,48.8763,-72.212,-12.64,99,41,1.05,CA,1707013085
399,gaiman,-43.2897,-65.4929,15.07,43,53,6.98,AR,1707013085
400,tovarkovo,54.6762,35.9386,2.24,98,100,7.57,RU,1707013086
401,bac lieu,9.285,105.7244,27.58,71,11,2.73,VN,1707013086
402,es castell,39.8795,4.2854,9.38,100,0,2.57,ES,1707013086
403,playa del ingles,27.7567,-15.5787,21.33,19,100,1.79,ES,1707013086
404,vernon,50.2581,-119.2691,6.45,91,100,0.51,CA,1707013086
405,mo i rana,66.3128,14.1428,-5.74,93,20,1.03,NO,1707013086
406,tralee,52.2704,-9.7026,11.27,98,100,3.99,IE,1707013087
407,tibu,8.639,-72.7358,24.17,97,83,1.04,CO,1707013087
408,flin flon,54.7682,-101.865,0.42,97,100,1.55,CA,1707013087
409,turaif,31.6725,38.6637,4.14,81,0,1.03,SA,1707013087
410,ladysmith,48.9829,-123.8194,6.51,93,75,0.0,CA,1707012911
411,portstewart,55.1813,-6.714,8.47,78,100,8.83,GB,1707013087
412,berdigestyakh,62.0989,126.6992,-29.62,99,92,1.17,RU,1707013053
413,labrador city,52.9463,-66.9114,-21.57,68,40,0.0,CA,1707012914
414,sinjai,-5.1241,120.253,30.03,67,100,0.37,ID,1707013088
415,namibe,-15.1961,12.1522,24.5,88,86,2.19,AO,1707013088
416,ruston,32.5232,-92.6379,11.44,97,100,2.57,US,1707012762
417,sirjan,29.452,55.6814,0.18,27,0,0.85,IR,1707013088
418,shira,54.4911,89.9531,-15.57,96,100,1.55,RU,1707013088
419,veshenskaya,49.6303,41.7334,-0.5,94,100,8.94,RU,1707013088
420,thakhek,17.4103,104.8307,27.06,62,76,1.85,LA,1707013089
421,dampit,-8.2116,112.7493,26.33,78,69,1.68,ID,1707013089
422,lazaro cardenas,17.9583,-102.2,23.53,73,0,2.82,MX,1707013089
423,umm kaddadah,13.6017,26.6876,14.49,24,33,6.7,SD,1707013089
424,pangoa,-12.1167,-73.0,20.7,98,70,1.25,PE,1707013090
425,pathein,16.7833,94.7333,24.94,59,1,4.42,MM,1707013090
426,troitsko-pechorsk,62.7084,56.1964,-14.06,90,100,4.92,RU,1707013090
427,caleta de carquin,-11.0925,-77.6267,23.68,86,94,2.99,PE,1707013090
428,katsuura,35.1333,140.3,7.24,92,100,6.13,JP,1707013001
429,alesund,62.4723,6.1549,5.42,69,40,7.72,NO,1707013091
430,dikhil,11.5,42.1667,22.35,72,71,1.79,DJ,1707013091
431,kirkwall,58.9848,-2.9587,7.2,76,75,13.38,GB,1707013092
432,crane,31.3974,-102.3501,13.51,26,1,15.15,US,1707013092
433,sitka,57.0531,-135.33,4.94,81,75,5.14,US,1707013092
434,tevriz,57.509,72.4042,-19.43,99,100,2.98,RU,1707013092
435,i-n-salah,27.1935,2.4607,11.92,52,0,7.35,DZ,1707012975
436,placido de castro,-10.3353,-67.1856,25.3,89,40,1.23,BR,1707013092
437,port saint john's,-31.6229,29.5448,21.96,83,13,2.45,ZA,1707013092
438,baukau,51.5526,7.2042,10.54,97,100,5.63,DE,1707013093
439,la passe,45.5549,-0.8967,7.21,93,46,3.45,FR,1707013093
440,purwakarta,-6.5569,107.4433,28.28,75,81,1.63,ID,1707013093
441,beloyarskiy,63.7119,66.6722,-23.33,100,98,2.24,RU,1707013093
442,mhamid,29.82,-5.72,10.45,32,7,3.03,MA,1707013093
443,yambio,4.5721,28.3955,20.42,38,97,1.22,SS,1707013094
444,rondonopolis,-16.4708,-54.6356,23.14,76,100,1.68,BR,1707013094
445,sassnitz,54.5167,13.65,5.45,90,43,13.33,DE,1707013094
446,sao jose da coroa grande,-8.8978,-35.1478,25.96,83,60,2.69,BR,1707013094
447,mindelo,16.8901,-24.9804,21.75,83,100,3.6,CV,1707013094
448,sambava,-14.2667,50.1667,24.61,94,100,5.54,MG,1707013095
449,raja,8.4596,25.678,19.44,21,100,2.12,SS,1707013095
450,lesosibirsk,58.2358,92.4828,-16.72,98,100,2.31,RU,1707013095
451,nhamunda,-2.1861,-56.7131,24.79,83,21,1.31,BR,1707013095
452,el granada,37.5027,-122.4694,11.94,85,100,8.23,US,1707013095
453,luena,-11.7833,19.9167,16.75,96,100,1.37,AO,1707013095
454,magna,40.7091,-112.1016,4.27,77,75,2.57,US,1707012873
455,ostersund,63.1792,14.6357,-0.75,80,100,14.92,SE,1707013096
456,new kingman-butler,35.265,-114.0323,9.51,54,0,4.63,US,1707013096
457,chibougamau,49.9168,-74.3659,-13.21,85,0,1.03,CA,1707013096
458,bel ombre,-4.6167,55.4167,27.91,78,40,3.09,SC,1707013096
459,sosnogorsk,63.6023,53.8817,-13.06,92,100,4.54,RU,1707013096
460,labuan,5.2767,115.2417,29.2,84,40,1.54,MY,1707013096
461,bethanie,-26.4833,17.15,27.92,38,98,1.49,NA,1707013096
462,canto del llano,8.1761,-80.973,24.81,84,91,0.89,PA,1707013097
463,heroica caborca,30.7167,-112.15,15.39,44,0,2.17,MX,1707013097
464,katabu,-4.9333,122.5167,30.84,62,62,2.15,ID,1707013097
465,hammerfest,70.6634,23.6821,-3.75,80,75,0.0,NO,1707013097
466,waverly,42.7392,-84.6208,-0.91,86,0,1.54,US,1707012944
467,kodinsk,58.6881,99.1844,-18.09,98,100,0.67,RU,1707013045
468,khanty-mansiysk,61.0042,69.0019,-25.94,70,20,1.0,RU,1707013097
469,debark',13.1561,37.8981,10.43,50,77,1.09,ET,1707013097
470,manaure,11.7751,-72.4445,25.86,85,95,4.09,CO,1707013098
471,guerrero negro,27.9769,-114.0611,15.51,65,0,5.96,MX,1707013098
472,charters towers,-20.1,146.2667,31.22,52,100,4.23,AU,1707013098
473,ghoti budrukh,19.7167,73.6333,19.91,40,5,2.05,IN,1707013098
474,broken hill,-31.95,141.4333,37.77,12,100,6.45,AU,1707013098
475,isabela,6.7085,121.9711,29.03,71,50,0.79,PH,1707013098
476,tlaxco,19.6167,-98.1167,11.35,36,0,1.84,MX,1707013098
477,gizo,-8.103,156.8419,29.45,74,68,3.81,SB,1707013099
478,pithora,21.2667,82.5167,18.2,42,0,0.18,IN,1707013099
479,taber,49.8167,-112.1518,1.0,100,100,9.26,CA,1707013099
480,novo aripuana,-5.1206,-60.3797,24.3,97,100,1.04,BR,1707013099
481,coahuayana de hidalgo,18.7,-103.6583,21.17,79,0,1.27,MX,1707013099
482,dawukou,39.0419,106.3958,-2.8,88,96,0.37,CN,1707012967
483,city of balikpapan,-1.242,116.8942,27.97,83,20,1.54,ID,1707013100
484,sabha,27.0377,14.4283,8.89,39,0,2.61,LY,1707013100
485,amga,60.8953,131.9608,-29.82,98,98,0.7,RU,1707013100
486,iskateley,67.6803,53.1512,-13.32,84,16,7.15,RU,1707013100
487,warrnambool,-38.3833,142.4833,23.79,54,0,3.34,AU,1707013100
488,kolwezi,-10.7148,25.4667,17.11,97,100,0.65,CD,1707013101
489,santa cruz,-17.8,-63.1667,26.7,89,3,3.09,BO,1707013101
490,homer,59.6425,-151.5483,-7.07,89,100,7.6,US,1707012903
491,sandpoint,48.2766,-116.5533,4.29,85,100,0.0,US,1707013101
492,poronaysk,49.2167,143.1167,-14.68,81,13,0.28,RU,1707013101
493,quellon,-43.1167,-73.6167,12.02,67,94,1.4,CL,1707013102
494,arkhipo-osipovka,44.37,38.52,4.24,86,100,11.12,RU,1707013102
495,kelso,46.1468,-122.9084,8.39,81,66,0.45,US,1707013102
496,mermoz boabab,14.7065,-17.4758,22.31,78,0,4.12,SN,1707013102
497,sandnessjoen,66.0217,12.6316,0.29,97,100,18.22,NO,1707013102
498,mocesti,45.05,26.25,4.18,81,100,1.36,RO,1707013102
499,smidovich,48.6,133.8167,-22.82,94,20,1.12,RU,1707013103
500,adeje,28.1227,-16.726,18.61,49,0,5.14,ES,1707013103
501,okhotsk,59.3833,143.3,-22.27,77,23,7.43,RU,1707013103
502,lucea,18.451,-78.1736,24.92,79,2,2.57,JM,1707013103
503,manakara,-22.1333,48.0167,23.7,84,100,2.11,MG,1707013103
504,hell-ville,-13.4,48.2667,26.24,83,100,2.18,MG,1707013103
505,isla mujeres,21.2311,-86.731,25.09,76,87,6.57,MX,1707013104
506,stornoway,58.2093,-6.3865,6.98,82,40,11.83,GB,1707013104
507,ancon,43.5982,13.5101,10.53,1,14,1.03,IT,1707013104
508,maralal,1.0968,36.698,16.28,75,45,3.01,KE,1707013104
509,itabaianinha,-11.2739,-37.79,21.59,91,3,1.99,BR,1707013104
510,kokubu-matsuki,31.7333,130.7667,13.74,93,75,3.09,JP,1707013104
511,shalqar,47.8333,59.6,-2.79,83,100,6.18,KZ,1707013105
512,ezhva,61.8128,50.7283,-10.03,85,100,2.0,RU,1707013105
513,razdol'noye,45.7708,33.4878,5.97,83,100,6.94,UA,1707013105
514,nepanagar,21.4667,76.4,20.48,42,5,0.94,IN,1707013105
515,al jawf,29.5,38.75,7.97,55,0,3.04,SA,1707013105
516,uliastay,47.7417,96.8444,-15.49,97,100,0.99,MN,1707013105
517,oppdal,62.5943,9.6912,-6.07,91,40,9.3,NO,1707013106
518,caconda,-13.7333,15.0667,16.21,93,100,1.06,AO,1707013106
519,juan griego,11.0817,-63.9655,28.07,69,60,4.94,VE,1707013106
520,ta`u,-14.2336,-169.5144,26.76,91,100,9.2,AS,1707013106
521,kenai,60.5544,-151.2583,-16.59,85,100,6.17,US,1707013106
522,kirando,-7.4167,30.6,22.07,81,85,2.01,TZ,1707013106
523,strezhevoy,60.7333,77.5889,-23.78,100,100,2.47,RU,1707013107
524,ambovombe,-25.1667,46.0833,21.38,82,3,2.46,MG,1707013107
525,mashi,12.9784,7.9529,15.19,17,36,5.04,NG,1707013107
526,beni,0.5,29.4667,18.73,68,79,0.68,CD,1707013107
527,greeley,40.4233,-104.7091,2.24,95,75,2.57,US,1707013049
528,takoradi,4.8845,-1.7554,25.76,94,13,1.93,GH,1707013107
529,sorong,-0.8833,131.25,28.13,81,45,4.23,ID,1707013108
530,antofagasta,-23.65,-70.4,21.6,81,2,1.2,CL,1707012964
531,long beach,33.767,-118.1892,14.53,74,75,2.57,US,1707013028
532,volodarskiy,46.4013,48.5409,0.97,81,100,6.76,RU,1707013108
533,olinda,-8.0089,-34.8553,28.85,70,75,5.14,BR,1707013108
534,qamdo,31.1667,97.2333,-10.99,47,100,2.82,CN,1707013108
535,inari,68.906,27.0288,-4.89,100,99,0.9,FI,1707013108
536,barra de santo antonio,-9.4047,-35.5072,26.6,85,68,1.98,BR,1707013108
537,itoman,26.1247,127.6694,24.43,81,75,2.57,JP,1707013109
538,hayvoron,48.3396,29.8679,6.59,75,94,8.41,UA,1707013109
539,ofunato,39.0717,141.7167,4.86,48,26,7.72,JP,1707013109
540,tongliao,43.6125,122.2653,-12.26,69,2,1.74,CN,1707013109
541,cockburn town,21.4612,-71.1419,23.39,62,0,2.49,TC,1707013109
542,simanggang,1.2472,111.4528,27.99,83,40,0.0,MY,1707013109
543,kismayo,-0.3582,42.5454,26.78,82,31,5.67,SO,1707013110
544,makinsk,52.6292,70.4169,-2.66,95,100,7.18,KZ,1707013110
545,burang,30.25,81.1667,-9.03,94,65,2.74,CN,1707013110
546,kissidougou,9.1848,-10.0999,22.53,26,18,0.79,GN,1707013110
547,bismarck,46.8083,-100.7837,3.14,98,100,3.09,US,1707012900
548,seminole,28.7086,-81.2081,18.54,84,75,2.06,US,1707013110
549,mirny,62.5353,113.9611,-30.46,99,78,1.6,RU,1707013111
550,taulaga,-11.0553,-171.0883,28.3,79,100,10.78,AS,1707013111
551,mount pearl,47.5166,-52.7813,-1.14,91,100,8.75,CA,1707013111
552,hyesan-dong,41.3976,128.1787,-10.7,78,25,0.36,KP,1707013111
553,saint john's,47.5649,-52.7093,-0.68,91,100,8.75,CA,1707013021
554,siwa oasis,29.2041,25.5195,10.47,64,5,1.88,EG,1707013112
555,maisi,43.0395,41.2621,-0.57,84,100,1.33,GE,1707013112
556,guiuan,11.0333,125.7247,27.39,78,11,5.64,PH,1707012989
557,brisas de zicatela,15.8369,-97.0419,25.81,78,0,6.27,MX,1707013112
558,fortuna,40.5982,-124.1573,10.55,81,0,0.45,US,1707013112
559,abepura,-2.6333,140.5833,33.45,59,20,1.03,ID,1707013112
560,princeville,45.7668,-61.2985,-1.33,96,100,3.6,CA,1707013112
561,nagato,34.3833,131.2,9.45,82,100,5.42,JP,1707013113
562,yuzhno-kurilsk,44.0306,145.8556,-4.24,71,91,7.98,RU,1707013113
563,chernomorskoye,45.5039,32.6997,6.87,84,100,8.38,UA,1707012844
564,portland,45.5234,-122.6762,9.86,70,40,1.54,US,1707012451
565,booue,-0.0921,11.9385,23.44,94,100,0.13,GA,1707013113
566,san luis de la loma,17.2706,-100.8939,23.55,78,0,4.55,MX,1707013113
567,gaigeturi,33.4644,126.3183,12.03,76,75,6.69,KR,1707013113
568,illizi,26.4833,8.4667,7.89,33,0,2.47,DZ,1707013113
569,irymple,-34.25,142.1667,38.38,18,100,0.89,AU,1707013114
570,srivardhan,18.0333,73.0167,22.68,52,0,1.51,IN,1707013114
571,mil'kovo,55.6078,37.7956,-0.33,96,100,5.39,RU,1707013114
572,kidal,18.4411,1.4078,15.21,13,2,5.55,ML,1707013114
573,vilhena,-12.7406,-60.1458,20.78,98,100,3.39,BR,1707012941
574,kurumkan,54.3,110.3,-22.15,97,39,0.89,RU,1707013114
575,paraiso,9.8383,-83.8656,19.68,97,68,1.56,CR,1707013097
576,kalabo,-14.97,22.6814,20.64,89,100,1.9,ZM,1707013115
577,jianshui,23.6363,102.8264,14.99,45,0,2.36,CN,1707013115
